"";"Nombre.buscado";"Nombre.trivago";"Precio.mb";"Hotel.mb";"Wifi.lobby";"Wifi.habitacion";"Piscina";"Spa";"Parqueadero";"Mascotas";"Aire.acondicionado";"Restaurante";"Bar";"Gimnasio";"Estrellas";"Puntaje";"Opinion.cualitativa";"cantidad.opiniones";"Latitud";"Longitud"
"1";"Hotel Santa Barbara boutique";"Hotel Santa Barbara Boutique";257294;"Booking.com";"True";"True";"False";"False";"True";"False";"False";"False";"False";"False";"3";8,9;"Excelente";"262";"4.702236";"-74.04351"
"7";"Ayenda 1053 Risot";"Ayenda 1053 Risot";122592;"lol.travel";"True";"True";"False";"False";"False";"False";"False";"False";"True";"False";"3";7,9;"Bueno";"49";"4.639431";"-74.098183"
"8";"Hotel IBIS BOGOTA MUSEO";"Hotel ibis Bogota Museo";130737;"Booking.com";"True";"True";"False";"False";"True";"True";"False";"True";"False";"False";"3";8,2;"Muy bueno";"1530";"4.614705";"-74.068802"
"9";"HOTEL DANN CARLTON BOGOTA";"Hotel Dann Carlton Bogotá";212650;"lol.travel";"True";"True";"False";"False";"True";"False";"True";"True";"True";"True";"5";8,5;"Excelente";"1155";"4.688026";"-74.047142"
"10";"SOFITEL VICTORIA REGIA bogota ";"Sofitel Bogota Victoria Regia";628354;"Prestigia";"True";"True";"False";"True";"True";"False";"True";"True";"True";"True";"5";9;"Excelente";"849";"4.670083";"-74.053116"
"12";"CASA DANN CARLTON";"Casa Dann Carlton";339762;"lol.travel";"True";"True";"True";"True";"True";"False";"True";"True";"True";"True";"5";8,4;"Muy bueno";"2257";"4.680701";"-74.054047"
"13";"HOTEL CAPITAL BOGOTA COLOMBIA";"GHL Capital";228938;"Booking.com";"False";"False";"False";"False";"False";"False";"False";"True";"True";"True";"4";8,9;"Excelente";"2242";"4.65831";"-74.108192"
"16";"LE MANOIR BOGOTA";"Le Manoir";149840;"Booking.com";"True";"True";"False";"False";"True";"False";"False";"True";"True";"True";"4";8,4;"Muy bueno";"1934";"4.690975";"-74.049187"
"17";"Embassy Suites By Hilton Bogota Rosales";"Embassy Suites By Hilton Bogota Rosales";462013;"lol.travel";"True";"False";"False";"True";"True";"False";"True";"True";"True";"True";"4";8,9;"Excelente";"650";"4.652354";"-74.055824"
"18";"HOTEL ANDES PLAZA";"Hotel Andes Plaza";168027;"Booking.com";"True";"True";"False";"False";"True";"False";"True";"True";"False";"True";"4";8;"Muy bueno";"1230";"4.685939";"-74.048141"
"20";"CASA MEDINA BOGOTA";"Four Seasons Casa Medina Bogotá";1575471;"Agoda";"True";"True";"False";"False";"True";"True";"False";"True";"True";"True";"5";9,1;"Excelente";"215";"4.652531";"-74.056427"
"21";"101 PARK HOUSE";"101 Park House";281480;"lol.travel";"True";"True";"True";"True";"True";"True";"False";"True";"True";"True";"5";9,1;"Excelente";"246";"4.687423";"-74.054192"
"22";"HOTEL HOLIDAY INN BOGOTA AIRPORT";"Holiday Inn Bogota Airport";253852;"lol.travel";"True";"True";"False";"False";"True";"False";"True";"True";"True";"True";"4";8,8;"Excelente";"1425";"4.661713";"-74.109558"
"23";"HOTEL HAMPTON BY HILTON  BOGOTA USAQUEN";"Hampton by Hilton Bogotá - Usaquén";177066;"Agoda";"True";"True";"False";"False";"True";"False";"True";"False";"True";"True";"4";8,8;"Excelente";"282";"4.695683";"-74.031876"
"25";"Cora 127 plenitud";"Cora 127 Plenitud";260418;"Booking.com";"True";"True";"False";"False";"True";"True";"False";"False";"False";"True";"5";8,1;"Muy bueno";"256";"4.704585";"-74.043114"
"26";"Cora 96 street suites";"96 Street Suites";191135;"lol.travel";"True";"True";"False";"False";"True";"True";"False";"True";"True";"True";"4";7,8;"Bueno";"232";"4.67779";"-74.042763"
"27";"VIAGGIO NUEVE TREZ";"Viaggio Nueve Trez";211601;"Booking.com";"True";"True";"False";"False";"True";"False";"True";"True";"True";"True";"5";8,5;"Excelente";"286";"4.685238";"-74.051125"
"35";"VIAGGIO TELEPORT";"Viaggio Teleport";217570;"Booking.com";"True";"True";"False";"False";"False";"True";"False";"True";"False";"True";"4";8,7;"Excelente";"234";"4.717855";"-74.032677"
"37";"VIAGGIO URBANO";"Viaggio Urbano";225585;"Booking.com";"True";"True";"False";"False";"True";"False";"False";"True";"False";"False";"3";8,3;"Muy bueno";"347";"4.629306";"-74.063629"
"39";"BOGOTA REGENCY HOTEL";"Hotel Regency Suites";181628;"Booking.com";"True";"True";"False";"True";"False";"False";"False";"True";"False";"False";"4";8;"Muy bueno";"260";"4.630911";"-74.094498"
"40";"HOTEL HABITEL";"Hotel Habitel";242469;"Booking.com";"True";"True";"False";"False";"True";"False";"False";"True";"True";"True";"5";8,5;"Excelente";"2027";"4.688661";"-74.130852"
"41";"HOTEL COLOMBIANS SUITE";"Colombian's Suite International";124283;"ZenHotels.com";"True";"True";"False";"False";"True";"True";"False";"True";"True";"False";"3";8,3;"Muy bueno";"240";"4.632199";"-74.093658"
"42";"Tequendama Suites and Hotel";"Tequendama Suites and Hotel";215864;"Agoda";"True";"True";"False";"True";"True";"True";"False";"True";"False";"True";"5";8,2;"Muy bueno";"366";"4.565298";"-74.10392"
"43";"HOTEL  TEQUENDAMA";"Tequendama Bogota";213519;"Agoda";"False";"False";"False";"False";"False";"False";"True";"True";"True";"False";"5";7,6;"Bueno";"387";"4.565093";"-74.104561"
"47";"COSMOS 100";"Cosmos 100";216077;"lol.travel";"True";"True";"True";"True";"True";"False";"False";"True";"True";"True";"5";8,2;"Muy bueno";"1151";"4.685834";"-74.054161"
"48";"HOTEL DOUBLETREE BY HILTON BOGOTA CALLE 100";"Doubletree By Hilton Bogota - Calle 100";365600;"Prestigia";"True";"True";"True";"True";"True";"True";"True";"True";"True";"True";"4";8,6;"Excelente";"56";"4.68612";"-74.054588"
"50";"NH COLLECTION ROYAL WTC BOGOTA";"NH Collection Bogotá WTC Royal";295763;"NH Collection";"True";"True";"False";"True";"True";"False";"True";"True";"True";"True";"5";8,2;"Muy bueno";"410";"4.68039";"-74.040428"
"52";"HOTEL CAVIAR";"Hotel Caviar";138992;"Booking.com";"True";"True";"False";"False";"True";"False";"False";"True";"True";"False";"4";7,2;"Excelente";"47";"4.723473";"-74.046333"
"53";"ESTELAR APARTAMENTOS BOGOTA";"Estelar Apartamentos Bogotá";201453;"lol.travel";"True";"True";"False";"False";"True";"True";"False";"True";"False";"True";"3";8,3;"Muy bueno";"1079";"4.704275";"-74.042938"
"54";"HOTEL DE LA FERIA ESTELAR";"Estelar De la Feria";149054;"Prestigia";"True";"True";"False";"False";"True";"False";"False";"True";"True";"True";"3";7,5;"Bueno";"409";"4.63324";"-74.094551"
"55";"HOTEL ESTELAR LA FONTANA";"Hotel Estelar La Fontana";196337;"lol.travel";"False";"False";"False";"False";"True";"True";"True";"True";"False";"True";"5";8,5;"Excelente";"988";"4.704275";"-74.042938"
"56";"APARTAMENTOS ESTELAR AEROPUERTO";"Estelar Apartamentos Aeropuerto";151783;"lol.travel";"True";"True";"False";"False";"True";"False";"False";"True";"True";"True";"3";8;"Muy bueno";"214";"4.633654";"-74.090172"
"58";"Hotel Estelar Parque de la 93";"Hotel Estelar Parque de la 93";364364;"Prestigia";"True";"True";"True";"True";"True";"True";"True";"True";"True";"True";"5";9;"Excelente";"774";"4.674381";"-74.048027"
"59";"HOTEL ESTELAR WINDSOR HOUSE";"Estelar Windsor House";185081;"lol.travel";"False";"False";"False";"False";"True";"False";"False";"True";"True";"True";"4";8,6;"Excelente";"663";"4.677535";"-74.043427"
"60";"HOTEL ESTELAR CALLE 100";"Estelar Calle 100";256624;"Booking.com";"True";"True";"False";"False";"True";"False";"False";"True";"False";"True";"3";8,7;"Excelente";"570";"4.68461";"-74.046944"
"62";"HOTEL PLATINUM SUITE";"Hotel Platinum Suite";179411;"Booking.com";"True";"True";"False";"False";"True";"False";"False";"True";"False";"False";"3";8,5;"Excelente";"503";"4.626854";"-74.090843"
"63";"HOTEL SUITE CHICO";"Suite Chicó";139632;"ZenHotels.com";"True";"False";"False";"True";"False";"False";"True";"True";"False";"False";"5";8,5;"Excelente";"314";"4.684884";"-74.046135"
"64";"BOGOTA MARRIOTT";"Bogota Marriott Hotel";909034;"Agoda";"True";"True";"True";"True";"True";"False";"True";"True";"True";"True";"5";9,1;"Excelente";"650";"4.659344";"-74.108437"
"65";"SONESTA HOTEL BOGOTA";"Sonesta Bogotá";233984;"Prestigia";"True";"True";"False";"True";"True";"False";"True";"True";"True";"True";"4";8,9;"Excelente";"1285";"4.703551";"-74.043625"
"66";"JW MARRIOTT";"JW Marriott Hotel Bogota";1098756;"Atrapalo";"True";"True";"True";"True";"True";"False";"True";"True";"True";"True";"5";9,2;"Excelente";"540";"4.656838";"-74.055565"
"67";"HOTEL HILTON BOGOTA";"Hotel Hilton Bogotá";877356;"Prestigia";"True";"True";"True";"False";"True";"False";"True";"True";"True";"True";"5";9;"Excelente";"1319";"4.655799";"-74.055054"
"70";"HOLIDAY INN EXPRESS BOGOTA";"Holiday Inn Express Bogota - Parque La 93";286725;"lol.travel";"True";"True";"False";"False";"True";"False";"True";"True";"False";"True";"4";8,8;"Excelente";"647";"4.677316";"-74.046303"
"72";"santa barbara INN BOGOTA";"Santa Barbara Usaquen Inn";137029;"Booking.com";"False";"False";"False";"False";"False";"False";"False";"False";"False";"False";"5";8,5;"Excelente";"211";"4.69927";"-74.029892"
"75";"ALOFT BOGOTA AIRPORT ";"Aloft Bogota Airport";282073;"Booking.com";"True";"True";"False";"False";"True";"True";"True";"True";"True";"True";"4";8,7;"Excelente";"2487";"4.6831";"-74.120872"
"76";"W Bogota";"W Bogota";743778;"Prestigia";"True";"True";"True";"True";"True";"True";"True";"True";"True";"True";"5";8,8;"Excelente";"425";"4.693224";"-74.034859"
"77";"BEST WESTERN PLUS BOGOTA";"Best Western Plus 93 Park";291666;"lol.travel";"True";"True";"False";"False";"True";"False";"True";"True";"True";"True";"4";9;"Excelente";"1045";"4.675827";"-74.050323"
"78";"CITY EXPRESS PLUS BOGOTA";"City Express Plus Bogota Aeropuerto";221702;"ZenHotels.com";"False";"False";"False";"False";"False";"False";"False";"False";"False";"False";"4";8,7;"Excelente";"541";"4.680891";"-74.123344"
"80";"DOUBLE TREE BY HILTON BOGOTA PARQUE 93";"Double Tree Parque 93 by Hilton";430613;"Booking.com";"True";"True";"True";"False";"True";"False";"True";"True";"True";"True";"4";8,8;"Excelente";"507";"4.680472";"-74.04612"
"83";"MOVICH BURO 26 BOGOTA COLOMBIA";"Movich Buró 26";229931;"Agoda";"True";"True";"False";"True";"True";"False";"True";"True";"True";"True";"5";8,7;"Excelente";"1222";"4.689978";"-74.130188"
"84";"HOTEL CHICO MOVICH 97";"Movich Chico 97";284589;"lol.travel";"True";"True";"False";"False";"True";"False";"False";"True";"False";"False";"4";8,8;"Excelente";"233";"4.680843";"-74.046135"
"85";"93 LUXURY SUITES";"93 Luxury Suites & Residences";559670;"Prestigia";"True";"True";"False";"False";"True";"True";"False";"True";"True";"True";"4";9,4;"Excelente";"571";"4.67656";"-74.050201"
"87";"HOTEL EK";"Hotel EK";319336;"Prestigia";"True";"True";"False";"False";"False";"False";"False";"True";"True";"False";"4";9,2;"Excelente";"617";"4.672265";"-74.048912"
"88";"CLICK CLACK HOTEL";"The Click Clack";268899;"Prestigia";"True";"True";"False";"False";"True";"False";"True";"True";"True";"False";"4";8,4;"Muy bueno";"1890";"4.675336";"-74.047516"
"89";"HOLLIDAY INN EXPRESS AND SUITES BOGOTA";"Holiday Inn Express & Suites Bogota DC";256663;"lol.travel";"True";"True";"False";"True";"True";"False";"True";"True";"False";"True";"3";8,9;"Excelente";"222";"4.651006";"-74.057991"
"90";"ARTISAN BOGOTA";"The Artisan D.C. Hotel, Autograph Collection";733066;"Agoda";"True";"True";"False";"True";"True";"False";"True";"True";"True";"True";"4";9;"Excelente";"65";"4.654032";"-74.054451"
"91";"FOUR POINTS BY SHERATON BOGOTA";"Four Points By Sheraton Bogota";377959;"Booking.com";"False";"True";"True";"False";"True";"False";"True";"True";"True";"True";"4";8,8;"Excelente";"576";"4.679653";"-74.053314"
"92";"FOUR SEASONS HOTEL CASA MEDINA BOGOTA";"Four Seasons Casa Medina Bogotá";1575448;"Booking.com";"True";"True";"False";"False";"True";"True";"False";"True";"True";"True";"5";9,1;"Excelente";"215";"4.652531";"-74.056427"
"93";"FOUR SEASONS HOTEL BOGOTA";"Hotel Four Seasons Bogota";1460760;"Booking.com";"True";"True";"False";"False";"True";"False";"True";"True";"True";"True";"5";9;"Excelente";"193";"4.669665";"-74.053337"
"94";"COURTYARD BY MARRIOTT BOGOTA AIRPORT";"Courtyard by Marriott Bogota Airport";322960;"Prestigia";"False";"False";"False";"False";"True";"False";"True";"False";"False";"True";"4";9;"Excelente";"1079";"4.687227";"-74.127083"
"96";"HOTEL SOFITEL SANTA CLARA";"Hotel Sofitel Legend Santa Clara Cartagena";1224690;"Booking.com";"True";"True";"True";"True";"True";"False";"True";"True";"True";"True";"5";9,1;"Excelente";"1100";"10.428777";"-75.548012"
"98";"HOTEL REGATTA CARTAGENA";"The Regatta Hotel";299895;"lol.travel";"True";"True";"True";"True";"True";"True";"True";"True";"True";"False";"4";7,5;"Bueno";"699";"10.400547";"-75.558754"
"99";"HOTEL CARTAGENA PLAZA";"Cartagena Plaza";283864;"lol.travel";"True";"True";"True";"False";"True";"False";"True";"True";"True";"False";"4";7,5;"Bueno";"1782";"10.401288";"-75.557953"
"100";"HOTEL SAN PEDRO DE MAJAGUA";"San Pedro de Majagua";522321;"Booking.com";"True";"True";"False";"True";"False";"True";"True";"True";"True";"False";"4";8,1;"Muy bueno";"767";"10.181152";"-75.72892"
"102";"HOTEL COSTA DEL SOL";"Hotel Costa del Sol";277000;"Booking.com";"True";"True";"True";"False";"True";"True";"True";"True";"False";"False";"3";5,4;"Muy bueno";"1656";"10.41373";"-75.533577"
"103";"HOTEL ISLA DEL ENCANTO";"Isla Del Encanto";1579499;"lol.travel";"True";"True";"True";"True";"False";"True";"True";"True";"True";"False";"5";8,2;"Muy bueno";"126";"10.141425";"-75.701469"
"104";"HOTEL 3 BANDERAS";"Tres Banderas";367897;"Booking.com";"False";"False";"False";"False";"True";"True";"True";"True";"False";"False";"2";8,6;"Excelente";"583";"10.426862";"-75.54834"
"106";"HOTEL CASA DEL ARZOBISPADO";"Hotel Casa del Arzobispado";778771;"Booking.com";"True";"True";"True";"True";"False";"True";"True";"True";"True";"False";"4";9,1;"Excelente";"352";"10.423933";"-75.550346"
"108";"HOTEL DANN CARTAGENA";"Dann Cartagena";563507;"lol.travel";"True";"True";"True";"False";"False";"False";"True";"True";"True";"False";"4";8,7;"Excelente";"2181";"10.397568";"-75.562172"
"109";"Charleston Santa Teresa";"Charleston Santa Teresa";1071719;"lol.travel";"True";"True";"True";"True";"False";"False";"True";"True";"True";"True";"5";8,9;"Excelente";"753";"10.422234";"-75.552551"
"111";"INTERCONTINENTAL CARTAGENA";"InterContinental Cartagena de Indias";503519;"Prestigia";"True";"True";"True";"False";"True";"False";"True";"True";"False";"False";"5";8,5;"Excelente";"1077";"10.400347";"-75.559303"
"112";"HAMPTON BY HILTON";"Hampton By Hilton Cartagena";343212;"Booking.com";"False";"True";"True";"False";"True";"False";"False";"False";"True";"True";"3";8,7;"Excelente";"3305";"10.414682";"-75.550362"
"114";"VIAGGIO PUERTO CARTAGENA";"Viaggio Puerto Cartagena";173013;"Booking.com";"True";"True";"False";"False";"True";"False";"True";"True";"True";"False";"3";7,4;"Muy bueno";"105";"10.342565";"-75.493805"
"115";"TEQUENDAMA INN CARTAGENA";"Tequendama Inn Cartagena";263996;"lol.travel";"True";"True";"False";"False";"False";"False";"True";"True";"False";"False";"3";7,4;"Muy bueno";"382";"10.402555";"-75.554558"
"116";"ESTELAR PLAYA MANZANILLO";"Estelar Playa Manzanillo";604010;"lol.travel";"True";"True";"True";"False";"True";"True";"True";"True";"True";"True";"3";8,3;"Muy bueno";"1536";"10.52429";"-75.494553"
"117";"HILTON CARTAGENA";"Hilton Cartagena";362312;"Prestigia";"True";"True";"True";"True";"True";"True";"True";"True";"True";"True";"5";8,5;"Excelente";"3089";"10.393917";"-75.559341"
"118";"HOTEL CAPILLA DEL MAR";"Capilla del Mar";380432;"lol.travel";"True";"True";"True";"False";"True";"True";"True";"True";"True";"True";"4";8,5;"Excelente";"1226";"10.403773";"-75.555107"
"119";"HOTEL DECAMERON CARTAGENA";"Decameron Cartagena";866343;"lol.travel";"False";"False";"True";"False";"True";"True";"True";"True";"True";"False";"3";7,2;"Muy bueno";"646";"10.407572";"-75.552628"
"122";"HOTEL CARIBE";"Caribe By Faranda";420807;"Prestigia";"True";"True";"True";"False";"True";"False";"True";"True";"True";"True";"5";8,1;"Muy bueno";"2213";"10.397837";"-75.560867"
"125";"HOTEL HOLIDAY INN CARTAGENA MORROS";"Holiday Inn Cartagena Morros";386386;"Prestigia";"True";"True";"True";"True";"True";"False";"True";"True";"True";"True";"4";8,8;"Excelente";"970";"10.465973";"-75.500565"
"126";"CORAL REEF CARTAGENA";"Coral Reef";178719;"lol.travel";"True";"True";"False";"False";"True";"False";"True";"True";"True";"False";"3";6,9;"Muy bueno";"83";"10.399178";"-75.560524"
"127";"SONESTA HOTEL CARTAGENA";"Sonesta Hotel Cartagena";309433;"Prestigia";"True";"True";"True";"False";"True";"True";"True";"True";"True";"True";"4";7,8;"Bueno";"1700";"10.467762";"-75.498978"
"128";"HOTEL ALMIRANTE CARTAGENA";"Almirante Cartagena";341152;"lol.travel";"True";"True";"True";"False";"True";"False";"True";"True";"True";"True";"5";8;"Muy bueno";"1664";"10.400522";"-75.558037"
"130";"CORALES DE INDIAS";"Ghl Corales de Indias";306193;"lol.travel";"True";"True";"True";"True";"True";"False";"True";"True";"True";"True";"4";8;"Muy bueno";"2725";"10.443166";"-75.525307"
"131";"Allure chocolat Cartagena";"Allure Chocolat";503372;"lol.travel";"True";"True";"True";"False";"True";"True";"True";"True";"True";"True";"4";9;"Excelente";"1395";"10.420212";"-75.548325"
"132";"BASTION LUXURY HOTEL";"Hotel Bastión Luxury";739177;"Prestigia";"True";"True";"True";"False";"False";"False";"True";"True";"True";"True";"5";9,3;"Excelente";"1303";"10.426718";"-75.548767"
"134";"TCHERASSI HOTEL";"Tcherassi Hotel";793023;"Booking.com";"True";"True";"True";"True";"False";"True";"False";"True";"False";"False";"4";8,9;"Excelente";"302";"10.42689";"-75.549217"
"135";"HOTEL HYATT REGENCY CARTAGENA";"Hyatt Regency Cartagena";465428;"Prestigia";"True";"True";"True";"True";"True";"True";"True";"False";"True";"True";"4";9,2;"Excelente";"1135";"10.411293";"-75.551468"
"142";"HOTEL SOCHAGOTA";"D'Acosta Hotel Sochagota";581178;"Booking.com";"False";"False";"True";"True";"True";"False";"False";"True";"True";"False";"4";8,5;"Excelente";"476";"5.760112";"-73.114182"
"145";"HOTEL HUNZA";"Hunza y Centro de Convenciones";214957;"Booking.com";"True";"True";"True";"False";"True";"False";"False";"True";"False";"True";"4";8;"Muy bueno";"121";"5.535133";"-73.362"
"150";"HOTEL CASA DE LOS FUNDADORES";"Casa de los Fundadores";251153;"Booking.com";"True";"False";"True";"True";"True";"False";"False";"True";"True";"True";"3";8,2;"Muy bueno";"348";"5.639072";"-73.538139"
"154";"REFUGIO EL SANTUARIO";"Refugio El Santuario";164735;"Booking.com";"True";"True";"False";"False";"False";"True";"False";"True";"True";"False";"4";8;"Muy bueno";"25";"5.463462";"-73.769089"
"161";"HOTEL ESTELAR ALTAMIRA";"Hotel Estelar Altamira";255843;"lol.travel";"False";"True";"True";"True";"True";"False";"True";"True";"True";"True";"4";8,5;"Excelente";"792";"4.445271";"-75.246117"
"172";"UNION GIRARDOT";"Union Girardot";421260;"Booking.com";"True";"True";"True";"True";"True";"True";"True";"True";"True";"True";"4";8,9;"Excelente";"289";"4.296992";"-74.807777"
"173";"GHL STYLE NEIVA";"Ghl Style Neiva";189718;"Booking.com";"True";"True";"False";"False";"True";"True";"True";"True";"True";"False";"3";8,9;"Excelente";"476";"2.920557";"-75.275352"
"174";"GHL CLUB EL PUENTE";"GHL Club El Puente";196199;"Booking.com";"True";"True";"True";"False";"True";"True";"True";"True";"False";"False";"4";8,2;"Muy bueno";"1252";"4.293625";"-74.784889"
"177";"HOTEL DECAMERON GALEON";"Decameron Galeón";703396;"Booking.com";"True";"True";"True";"False";"True";"False";"True";"True";"True";"False";"3";8;"Muy bueno";"403";"11.092226";"-74.218925"
"178";"Zuana Beach Resort Hotel";"Zuana Beach Resort Hotel";461037;"lol.travel";"True";"True";"True";"True";"True";"False";"True";"True";"True";"True";"4";7,6;"Bueno";"813";"11.15397";"-74.227943"
"180";"HOTEL LA SIERRA SANTAMARTA";"be la Sierra";184474;"lol.travel";"False";"True";"False";"False";"True";"False";"True";"True";"True";"False";"3";7,5;"Bueno";"507";"11.203135";"-74.227242"
"181";"Hotel Tayrona";"Hotel Tayrona";245099;"Booking.com";"True";"True";"True";"True";"False";"True";"True";"True";"True";"False";"3";7,5;"Bueno";"111";"11.208411";"-74.226799"
"182";"HOTEL EMILE MERCURE ";"Mercure Santa Marta Emile";243223;"Booking.com";"True";"True";"True";"False";"True";"False";"True";"True";"True";"True";"4";8,7;"Excelente";"384";"11.149634";"-74.225441"
"183";"HOTEL SANTORINI RESORT";"Santorini Hotel & Resort";413202;"Booking.com";"True";"True";"True";"True";"True";"False";"True";"True";"True";"True";"4";7,9;"Bueno";"1003";"11.143636";"-74.225365"
"185";"TEQUENDAMA INN  SANTA MARTA";"Tequendama Inn Santa Marta";181845;"lol.travel";"True";"True";"True";"True";"False";"False";"True";"True";"True";"False";"3";7,7;"Bueno";"459";"11.24725";"-74.20166"
"187";"HOTEL SICARARE";"Hotel Sicarare";163469;"Booking.com";"True";"False";"True";"False";"True";"False";"True";"True";"True";"False";"3";8,3;"Muy bueno";"97";"10.489581";"-73.263702"
"188";"IROTAMA";"Irotama Resort";1066429;"Booking.com";"True";"True";"True";"True";"True";"False";"True";"True";"True";"True";"5";8,2;"Muy bueno";"1401";"11.149683";"-74.225533"
"189";"TAMACA HOTEL";"Tamaca Hotel";356058;"Booking.com";"True";"True";"True";"False";"True";"False";"True";"True";"True";"True";"4";8,3;"Muy bueno";"615";"11.20083";"-74.227158"
"190";"HOTEL YULDAMA";"Hotel Yuldama Rodadero Inn";157755;"Booking.com";"True";"True";"True";"False";"False";"False";"True";"True";"False";"False";"4";6,8;"Excelente";"217";"11.202209";"-74.226059"
"193";"BAHIA BLANCA SANTA MARTA";"Bahia Blanca";88556;"Booking.com";"True";"False";"False";"False";"False";"False";"True";"True";"False";"False";"4";8;"Muy bueno";"170";"11.251066";"-74.212852"
"198";"SANHA PLUS HOTEL";"Sanha Plus Hotel";458343;"Booking.com";"True";"True";"True";"False";"True";"False";"True";"True";"True";"False";"3";7,6;"Bueno";"341";"11.157161";"-74.222893"
"199";"HOTEL SANSIRAKA";"Hotel Sansiraka";228660;"Booking.com";"True";"True";"True";"True";"True";"True";"True";"True";"True";"False";"3";7,7;"Bueno";"100";"11.236106";"-74.212982"
"202";"Hotel GHL Relax Costa Azul";"Hotel GHL Relax Costa Azul";227764;"Booking.com";"True";"True";"True";"False";"True";"False";"True";"True";"False";"True";"3";7,9;"Bueno";"1335";"11.107103";"-74.223984"
"204";"HOTEL WAYA  WUAJIRA";"Hotel Waya Guajira";240001;"Booking.com";"True";"True";"True";"True";"False";"True";"True";"True";"True";"True";"4";8,3;"Muy bueno";"92";"11.171829";"-72.585533"
"205";"HOTEL CATEDRAL PLAZA";"Hotel Catedral Plaza";500553;"Booking.com";"True";"True";"True";"False";"True";"False";"True";"True";"True";"True";"4";8,5;"Excelente";"85";"11.243669";"-74.210457"
"206";"BEST WESTERN PLUS";"Best Western Plus Santa Marta Hotel";417327;"lol.travel";"True";"True";"True";"False";"True";"False";"True";"True";"True";"True";"4";8,7;"Excelente";"202";"11.238747";"-74.212982"
"207";"SORATAMA";"Soratama";186364;"Booking.com";"True";"True";"False";"False";"True";"False";"True";"True";"True";"False";"4";7,8;"Bueno";"558";"4.814791";"-75.694328"
"212";"ARMENIA HOTEL ";"Armenia Hotel";342499;"Booking.com";"True";"True";"True";"True";"True";"True";"True";"True";"True";"False";"4";8,1;"Muy bueno";"214";"4.548982";"-75.660133"
"217";"HOTEL LAS COLINAS ESTELAR";"Pop Art Las Colinas";175151;"Booking.com";"True";"True";"False";"False";"True";"False";"False";"True";"True";"False";"4";8;"Muy bueno";"573";"5.067544";"-75.518806"
"218";"HOTEL ESTELAR RECINTO DEL PENSAMIENTO";"Estelar Recinto Del Pensamiento";260552;"Booking.com";"True";"True";"False";"False";"True";"False";"False";"True";"False";"False";"3";8,7;"Excelente";"239";"5.04163";"-75.502388"
"220";"HOTEL CARRETERO";"Hotel Carretero";350387;"Booking.com";"True";"True";"False";"True";"True";"False";"False";"True";"True";"True";"4";7,8;"Bueno";"204";"5.067227";"-75.512627"
"228";"DECAMERON HELICONIAS";"Decameron Las Heliconias";559775;"lol.travel";"True";"True";"True";"True";"True";"False";"False";"True";"True";"False";"4";8,4;"Muy bueno";"131";"4.609384";"-75.815964"
"229";"HOTEL PANACA DECAMERON ";"Hotel Decameron Panaca";492282;"Booking.com";"True";"True";"True";"True";"True";"False";"False";"True";"True";"True";"3";8,5;"Excelente";"387";"4.609321";"-75.816032"
"230";"HOTEL VARUNA";"Hotel Varuna";256928;"Booking.com";"True";"True";"False";"False";"True";"False";"False";"True";"False";"True";"4";8,4;"Muy bueno";"307";"5.059054";"-75.487396"
"231";"LUXOR CONDINA";"Luxor Condina";133239;"Booking.com";"True";"True";"False";"False";"False";"True";"True";"False";"False";"False";"3";8,2;"Muy bueno";"235";"4.815194";"-75.693405"
"232";"HOTEL PINARES PLAZA";"Hotel Pinares Plaza";210198;"ZenHotels.com";"True";"True";"False";"False";"True";"False";"True";"True";"True";"True";"4";8;"Muy bueno";"104";"4.804";"-75.686172"
"234";"HOTEL BOUTIQUE VISUS";"Visus Hotel Boutique & Spa";544426;"Agoda";"True";"True";"True";"True";"True";"True";"False";"True";"True";"False";"3";8,9;"Excelente";"67";"4.820319";"-75.810745"
"238";"SONESTA PEREIRA";"Sonesta Pereira";385434;"Booking.com";"True";"True";"True";"True";"True";"True";"True";"True";"True";"True";"5";9,1;"Excelente";"1176";"4.809852";"-75.808983"
"240";"COCOPLUM BEACH";"Cocoplum Beach";507530;"Booking.com";"False";"False";"True";"False";"True";"True";"True";"False";"False";"False";"3";7,4;"Muy bueno";"939";"12.54353";"-81.706383"
"241";"CALIPSO BEACH SAN ";"Calypso Beach";434978;"Booking.com";"False";"False";"True";"False";"False";"True";"True";"True";"True";"False";"3";6,9;"Muy bueno";"251";"12.575801";"-81.704689"
"242";"SOLAR SOL CARIBE CAMPO";"Solar Sol Caribe Campo";662998;"Booking.com";"True";"False";"True";"False";"False";"False";"True";"True";"True";"False";"4";7,2;"Excelente";"432";"12.537974";"-81.711029"
"243";"SOL CARIBE SEA FLOWERS";"Sol Caribe Sea Flowers";422486;"Booking.com";"True";"False";"False";"False";"False";"False";"True";"True";"True";"False";"3";7,8;"Bueno";"508";"12.580193";"-81.694626"
"245";"Solar Hoteles Sol Caribe ProviDENCIA";"Solar Hoteles Sol Caribe Providencia";387373;"Atrapalo";"True";"True";"True";"False";"False";"False";"True";"True";"False";"False";"3";7,8;"Bueno";"117";"13.34583";"-81.392769"
"246";"DECAMERON AQUARIUM ";"Decameron Aquarium";1171652;"Booking.com";"True";"False";"True";"False";"False";"False";"True";"True";"True";"False";"4";7,4;"Excelente";"751";"12.580507";"-81.688202"
"248";"HOTEL LOS DELFINES SAN";"Hotel Decameron Los Delfines";1171652;"lol.travel";"True";"True";"True";"False";"False";"False";"True";"True";"True";"False";"4";7,7;"Bueno";"227";"12.582993";"-81.689598"
"250";"DECAMERON ISLEÑO SAN";"Decameron Isleño";1039176;"Booking.com";"True";"True";"True";"False";"True";"False";"True";"True";"False";"True";"5";8,1;"Muy bueno";"795";"12.58609";"-81.698418"
"251";"DECAMERON SAN LUIS ALL INCLUSIVE";"Decameron San Luis All Inclusive";791928;"Booking.com";"True";"True";"True";"True";"True";"False";"False";"False";"False";"False";"3";6,9;"Muy bueno";"312";"12.51382";"-81.714828"
"252";"DECAMERON  MAR AZUL";"Decameron Marazul";924520;"Booking.com";"True";"True";"True";"True";"False";"True";"True";"True";"True";"True";"4";7,2;"Excelente";"410";"12.558128";"-81.704941"
"253";"APARTA HOTEL LAS AMERICAS SAN";"Hotel Las Americas";388234;"Booking.com";"False";"False";"True";"False";"False";"True";"True";"True";"False";"False";"3";6,5;"Muy bueno";"130";"12.583662";"-81.69606"
"256";"HOTEL LORD PIERRE";"Hotel Lord Pierre";566948;"Booking.com";"False";"False";"True";"False";"True";"True";"True";"True";"True";"False";"3";6,6;"Muy bueno";"224";"12.582984";"-81.689247"
"257";"GHL RELAX SUNRISE SAN";"GHL Relax Sunrise";426298;"lol.travel";"True";"False";"True";"False";"False";"False";"True";"True";"True";"True";"3";7,3;"Muy bueno";"1164";"12.580199";"-81.696007"
"258";"HOTEL ARENA BLANCA SAN";"Arena Blanca";840190;"Booking.com";"True";"True";"True";"False";"False";"True";"True";"True";"True";"False";"3";7,9;"Bueno";"345";"12.580818";"-81.688896"
"259";"HOTEL EL DORADO SAN ANDRES";"Hotel El Dorado";690323;"Booking.com";"False";"False";"True";"True";"False";"True";"True";"True";"False";"False";"4";7,4;"Excelente";"217";"12.58272";"-81.690422"
"261";"HOTEL TIUNA";"Hotel Tiuna";382982;"Booking.com";"False";"False";"True";"False";"False";"False";"True";"True";"True";"False";"3";5,6;"Muy bueno";"72";"12.592569";"-81.707756"
"262";"PORTOFINO SAN ANDRES COLOMBIA";"Portofino Caribe";422163;"Booking.com";"False";"False";"True";"False";"False";"False";"True";"True";"True";"False";"3";6,5;"Bueno";"87";"12.582686";"-81.691376"
"263";"HOTEL MS SAN LUIS VILLAGE";"MS San Luis Village Premium";501590;"lol.travel";"True";"True";"True";"False";"True";"False";"True";"True";"True";"False";"3";6,6;"Muy bueno";"374";"12.520418";"-81.714355"
"265";"HOTEL ACANTILADO DE LA TIERRA";"Acantilado De La Tierra By On Vacation";152459;"Booking.com";"False";"False";"True";"False";"False";"False";"False";"True";"False";"False";"5";8,1;"Muy bueno";"14";"12.586108";"-81.714912"
"266";"HOTEL BLUE TONE";"Hotel On Vacation Blue Tone";108333;"lol.travel";"True";"True";"True";"False";"False";"False";"True";"True";"True";"False";"2";5,9;"Bueno";"247";"12.58553";"-81.695442"
"269";"HOTEL ON VACATION TOWER";"Hotel On Vacation Tower";477758;"Booking.com";"True";"True";"True";"False";"True";"True";"True";"True";"True";"False";"3";5,7;"Muy bueno";"193";"12.582741";"-81.695091"
"272";"ON VACATION  BLUE REEF";"On Vacation Blue Reef";176462;"Booking.com";"True";"True";"True";"False";"True";"False";"True";"True";"True";"False";"2";6,9;"Bueno";"94";"12.58759";"-81.7136"
"274";"HOTEL PORTOBELO BEACH";"Hotel Portobelo Beach";391466;"Booking.com";"False";"False";"False";"False";"False";"False";"True";"True";"False";"False";"2";6,8;"Bueno";"353";"12.583292";"-81.700462"
"275";"HOTEL PORTOBELO CONVENTION CENTER SAN";"Hotel Portobelo Convention Center";295966;"Booking.com";"False";"False";"False";"False";"False";"False";"False";"False";"False";"False";"3";6,6;"Muy bueno";"484";"12.58429";"-81.695511"
"278";"HOTEL MS CENTENARIO";"Hotel MS Centenario";177614;"Booking.com";"True";"True";"False";"False";"True";"False";"True";"True";"False";"False";"5";8,2;"Muy bueno";"512";"3.453424";"-76.537163"
"279";"HOTEL FERNANDO PLAZA";"Hotel Fernando Plaza";203066;"Booking.com";"True";"True";"False";"False";"False";"True";"False";"True";"True";"True";"5";8,5;"Excelente";"296";"1.212861";"-77.275764"
"280";"LOFT HOTEL NARINO";"Hotel Loft";179575;"Booking.com";"True";"True";"False";"False";"True";"True";"False";"True";"True";"True";"3";8,3;"Muy bueno";"210";"1.212623";"-77.277779"
"284";"HOTEL DANN MONASTERIO";"Hotel Dann Monasterio Popayán";379571;"lol.travel";"True";"True";"True";"False";"True";"False";"True";"True";"True";"True";"5";8,3;"Muy bueno";"414";"2.45";"-76.616669"
"285";"HOTEL GALERIAS PASTO";"Hotel Galerias";196287;"Booking.com";"False";"True";"False";"False";"True";"False";"False";"True";"True";"False";"3";7,5;"Bueno";"28";"1.215961";"-77.278671"
"286";"HOTEL NH ROYAL CALI";"NH Cali Royal";316302;"Prestigia";"True";"True";"True";"True";"True";"False";"True";"True";"False";"True";"4";8;"Muy bueno";"711";"3.372633";"-76.540405"
"291";"HOTEL LAS VEGAS GRANADA";"Hotel Las Vegas Granada";140479;"lol.travel";"True";"True";"False";"False";"True";"True";"True";"True";"True";"True";"3";7,1;"Muy bueno";"21";"3.44268";"-76.515198"
"294";"FOUR POINTS BY SHERATON CALI";"Four Points By Sheraton Cali";189679;"Agoda";"True";"True";"True";"False";"True";"False";"True";"True";"True";"True";"4";8,6;"Excelente";"1305";"3.459417";"-76.5298"
"295";"HOTEL HAMPTON BY HILTON CALI";"Hampton by Hilton Cali";174842;"Agoda";"True";"True";"False";"False";"True";"True";"True";"True";"True";"True";"3";8,9;"Excelente";"1358";"3.444915";"-76.553307"
"306";"HOTEL DANN CARLTON DAN CALI";"Hotel Dann Carlton Cali";379811;"Booking.com";"False";"True";"True";"False";"True";"False";"True";"True";"True";"False";"5";8,1;"Muy bueno";"473";"3.450024";"-76.540733"
"309";"MORASURCO";"Morasurco";209197;"Booking.com";"True";"True";"False";"False";"True";"True";"False";"True";"True";"False";"5";9;"Excelente";"Puntuación";"1.231472";"-77.284477"
"311";"HOTEL GUADALAJARA BUGA";"Hotel Guadalajara";242237;"Booking.com";"True";"True";"True";"True";"True";"False";"True";"True";"True";"False";"4";8,4;"Muy bueno";"209";"3.901389";"-76.301903"
"315";"Ofihotel Plazamar";"Ofihotel Plazamar";170487;"Booking.com";"True";"True";"False";"False";"True";"True";"True";"True";"True";"True";"4";8,5;"Excelente";"151";"3.887364";"-77.077095"
"317";"HOTEL MS CHIPICHAPE SUPERIOR";"Hotel MS Chipichape";164603;"Booking.com";"True";"True";"False";"False";"True";"False";"True";"True";"False";"False";"5";8,1;"Muy bueno";"358";"3.475788";"-76.524704"
"319";"MS BLUE 66";"Ms Blue 66";148318;"Booking.com";"True";"True";"True";"False";"True";"False";"True";"True";"False";"False";"4";8;"Muy bueno";"43";"3.398579";"-76.553619"
"320";"HOTEL MS CIUDAD JARDIN CALI";"Hotel MS Ciudad Jardín en Cali";252255;"Booking.com";"True";"True";"False";"False";"True";"False";"True";"True";"True";"True";"5";8,2;"Muy bueno";"385";"3.366935";"-76.531563"
"326";"CITY EXPRESS ";"City Express Cali";200926;"Booking.com";"True";"True";"False";"False";"True";"True";"True";"False";"False";"True";"3";8,5;"Excelente";"1162";"3.473057";"-76.526817"
"327";"COSMOS CALI";"Cosmos Cali";149554;"lol.travel";"True";"True";"False";"False";"True";"False";"True";"True";"False";"True";"4";8,4;"Muy bueno";"740";"3.444893";"-76.50634"
"328";"HOTEL TORRE DE CALI PLAZA";"Hotel Torre de Cali Plaza";137745;"lol.travel";"True";"True";"False";"True";"True";"True";"True";"True";"True";"True";"4";7,9;"Bueno";"987";"3.458275";"-76.528946"
"331";"HOTEL SPIWAK CHIPICHAPE";"Hotel Spiwak Chipichape";491380;"lol.travel";"True";"True";"True";"True";"True";"False";"True";"True";"True";"True";"5";8,9;"Excelente";"1737";"3.45835";"-76.511818"
"332";"HOTEL MARRIOTT CALI";"Cali Marriott Hotel";732210;"Agoda";"True";"True";"True";"True";"True";"False";"True";"True";"True";"True";"5";9;"Excelente";"611";"3.455954";"-76.535805"
"334";"MOVICH CASA DEL ALFEREZ";"Hotel Movich Casa del Alférez";300004;"Booking.com";"True";"True";"False";"False";"True";"False";"True";"True";"True";"True";"5";8,8;"Excelente";"340";"3.45144";"-76.517197"
"341";"BUENA VISTA BUCARAMANGA";"Buena Vista";157526;"Booking.com";"True";"True";"True";"True";"True";"True";"True";"True";"False";"True";"4";8,4;"Muy bueno";"311";"7.124847";"-73.113365"
"342";"RUITOQUE BUCARAMANGA";"Ruitoque Bucaramanga";97926;"Booking.com";"True";"True";"False";"False";"True";"False";"True";"True";"False";"False";"3";8;"Muy bueno";"15";"7.117959";"-73.122757"
"346";"HOTEL DANN CARLTON BUCARAMANGA";"Dann Carlton Bucaramanga";253790;"lol.travel";"True";"True";"True";"False";"True";"False";"True";"True";"True";"True";"4";9;"Excelente";"1131";"7.117588";"-73.112358"
"348";"CLUB CAMPESTRE DE BUCARAMANGA ";"Club Campestre de Bucaramanga";408759;"Booking.com";"True";"True";"True";"False";"True";"True";"True";"True";"True";"True";"4";8,9;"Excelente";"142";"7.123977";"-73.123276"
"350";"CIUDAD BONITA BUCARAMANGA";"Ciudad Bonita";266964;"Booking.com";"True";"True";"True";"False";"True";"True";"True";"True";"False";"True";"3";7,8;"Bueno";"273";"7.12084";"-73.12088"
"352";"HAMPTON BY HILTON BUCARAMANGA";"Hampton By Hilton Bucaramanga";176071;"Booking.com";"False";"False";"False";"False";"False";"False";"False";"False";"False";"False";"3";8,3;"Muy bueno";"Puntuación";"7.117952";"-73.111099"
"357";"HOTEL CHICAMOCHA";"Hotel Chicamocha";240318;"ZenHotels.com";"True";"True";"True";"True";"True";"False";"True";"True";"True";"True";"5";8,5;"Excelente";"399";"7.124529";"-73.11377"
"358";"HOTEL SAN JUAN INTERNACIONAL";"Hotel San Juan Internacional";223265;"ZenHotels.com";"True";"True";"True";"True";"True";"False";"True";"True";"False";"False";"3";8,4;"Muy bueno";"331";"7.085246";"-73.159843"
"360";"HOTEL CASINO INTERNACIONAL CUCUTA";"Hotel Casino Internacional";200029;"Booking.com";"True";"True";"True";"False";"True";"False";"True";"True";"True";"False";"4";8,7;"Excelente";"544";"7.886964";"-72.495338"
"362";"ARIZONA CUCUTA";"Hotel Arizona Suites";161788;"Booking.com";"False";"True";"False";"True";"True";"False";"True";"True";"False";"True";"3";8,6;"Excelente";"520";"7.891456";"-72.498955"
"364";"TONCHALA";"Tonchalá";199901;"ZenHotels.com";"True";"True";"True";"True";"True";"True";"True";"True";"True";"False";"4";7,8;"Bueno";"144";"7.889271";"-72.497887"
"365";"CABECERA COUNTRY";"Cabecera Country";139449;"Booking.com";"True";"True";"False";"False";"True";"False";"True";"True";"True";"False";"4";8;"Muy bueno";"112";"7.116708";"-73.110237"
"367";"SAN JOSE PLAZA BUCARAMANGA";"San José Plaza";157439;"Booking.com";"True";"True";"False";"False";"True";"True";"True";"True";"False";"True";"3";8,2;"Muy bueno";"170";"7.108774";"-73.118065"
"368";"HOTEL LA SERRANIA BUCARAMANGA";"Hotel La Serranía";141367;"ZenHotels.com";"True";"False";"False";"True";"False";"True";"True";"True";"True";"False";"3";8,8;"Excelente";"770";"7.125385";"-73.114967"
"369";"HOTELES SAN SILVESTRE BARRANCABERMEJA";"Hotel San Silvestre";210175;"ZenHotels.com";"True";"True";"False";"True";"True";"True";"True";"True";"False";"False";"4";8,3;"Muy bueno";"123";"7.067538";"-73.858528"
"372";"HOTEL HOLIDAY INN BUCARAMANGA CACIQUE";"Holiday Inn Bucaramanga Cacique";353674;"Booking.com";"True";"True";"True";"True";"True";"False";"True";"True";"True";"True";"3";9,1;"Excelente";"1085";"7.099352";"-73.107025"
"374";"HOLIDAY INN CUCUTA";"Holiday Inn Cucuta";241126;"lol.travel";"True";"True";"True";"False";"True";"False";"True";"True";"True";"True";"4";9,1;"Excelente";"480";"7.886817";"-72.496307"
"378";"HOTEL SUNRISE VILLAVICENCIO";"Hotel Sunrise Centro Vacacional";198366;"Booking.com";"True";"True";"True";"False";"True";"False";"True";"True";"False";"False";"3";7,4;"Muy bueno";"241";"4.102391";"-73.59037"
"380";"GLORIA HOTEL VILLAVICENCIO";"Grand Hotel Villavicencio";212733;"Booking.com";"True";"True";"True";"False";"False";"True";"True";"True";"True";"False";"4";8,7;"Excelente";"861";"4.12925";"-73.63134"
"381";"HACARITAMA COLONIAL";"Hacaritama Colonial";209663;"Booking.com";"True";"True";"True";"False";"True";"False";"True";"True";"True";"True";"5";8,1;"Muy bueno";"356";"4.128398";"-73.613785"
"382";"HAMPTON BY HILTON YOPAL";"Hampton By Hilton Yopal";183359;"Booking.com";"True";"True";"False";"False";"True";"False";"True";"False";"True";"True";"5";9;"Excelente";"135";"5.334688";"-72.383553"
"385";"HOTEL VILLAVICENCIO PLAZA";"Hotel Villavicencio Plaza";167628;"Booking.com";"True";"True";"True";"False";"True";"True";"True";"True";"True";"True";"5";8,1;"Muy bueno";"228";"4.162862";"-73.639931"
"387";"ESTELAR VILLAVICENCIO";"Estelar Villavicencio";237587;"lol.travel";"True";"True";"True";"True";"True";"False";"True";"True";"True";"True";"5";8,8;"Excelente";"726";"4.13109";"-73.638062"
"388";"ESTELAR YOPAL";"Estelar Yopal";178968;"lol.travel";"True";"True";"True";"False";"False";"True";"False";"True";"False";"True";"4";8,7;"Excelente";"103";"5.350086";"-72.400429"
"390";"HOTEL DEL LLANO VILLAVICENCIO";"Hotel Del Llano";185790;"Booking.com";"True";"True";"True";"True";"True";"True";"True";"True";"True";"True";"4";6,9;"Excelente";"557";"4.163758";"-73.6408"
"400";"WYNDHAM GARDEN VILLAVICENCIO";"Wyndham Garden Villavicencio";281882;"Booking.com";"True";"True";"True";"True";"True";"False";"True";"True";"True";"True";"5";7,7;"Bueno";"343";"4.226078";"-73.549332"
"402";"GHL GRAND VILLAVICENCIO ";"Grand Hotel Villavicencio";212733;"Booking.com";"True";"True";"True";"False";"False";"True";"True";"True";"True";"False";"4";8,7;"Excelente";"861";"4.12925";"-73.63134"
"403";"HOLIDAY INN EXPRESS YOPAL COLOMBIA";"Holiday Inn Express Yopal";165070;"lol.travel";"True";"True";"True";"False";"True";"False";"True";"False";"True";"True";"3";9,1;"Excelente";"323";"5.340175";"-72.385773"
"404";"GHL STYLE YOPAL";"Ghl Style Yopal";161745;"Booking.com";"True";"True";"False";"False";"True";"False";"True";"True";"True";"False";"3";9;"Excelente";"173";"5.330845";"-72.393402"
"406";"SANTORINI LOFT MONTERIA";"Santorini Loft";245176;"Booking.com";"True";"True";"False";"False";"True";"True";"True";"True";"True";"False";"3";8,1;"Muy bueno";"23";"8.758792";"-75.884644"
"407";"ZENU MONTERIA";"Zenu";121245;"Booking.com";"True";"True";"False";"False";"True";"False";"True";"True";"False";"False";"4";7,6;"Bueno";"49";"8.759461";"-75.885521"
"409";"BAROCA MONTERIA";"Baroca";202544;"Booking.com";"True";"True";"True";"False";"False";"False";"True";"True";"True";"True";"4";8,4;"Muy bueno";"29";"8.756297";"-75.883774"
"410";"CONDOMINIO PUNTEPIEDRA";"Condominio Puntepiedra";284909;"Booking.com";"True";"True";"True";"False";"True";"False";"True";"True";"False";"True";"4";8,8;"Excelente";"Puntuación";"9.42";"-75.690002"
"413";"HOTEL PANORAMA";"Hotel Panorama";77048;"Booking.com";"True";"True";"False";"False";"True";"False";"False";"False";"False";"False";"3";8;"Muy bueno";"953";"19.457575";"-99.127174"
"415";"GHL MONTERIA";"Ghl Monteria";203482;"Prestigia";"True";"True";"True";"True";"True";"False";"True";"True";"True";"True";"5";8,9;"Excelente";"321";"8.763723";"-75.872665"
"416";"MIRAVAL MONTERIA";"Miraval";148468;"Booking.com";"True";"True";"False";"False";"True";"False";"True";"True";"True";"False";"4";7,6;"Bueno";"33";"8.762876";"-75.87796"
"417";"FLORIDA SINU  MONTERIA";"Florida Sinú";179381;"Booking.com";"True";"True";"True";"False";"True";"False";"True";"True";"False";"True";"4";8,4;"Muy bueno";"170";"8.754975";"-75.869232"
"422";"WAIRA SUITES LETICIA";"Waira Suites";265341;"Booking.com";"False";"False";"True";"False";"True";"False";"True";"True";"True";"False";"4";8,9;"Excelente";"194";"4.216124";"-69.941574"
"423";"ON VACATION AMAZONAS";"On Vacation Amazon";225388;"Booking.com";"True";"True";"True";"False";"False";"True";"True";"True";"True";"False";"4";6,8;"Excelente";"115";"4.134648";"-70.01432"
"429";"SUMA WASI";"Inca Wasi";232552;"ZenHotels.com";"False";"False";"False";"False";"False";"False";"False";"False";"False";"False";"4";7,9;"Bueno";"289";"13.51626";"-71.979408"
"432";"HOTEL UNION PLAZA MONTERIA";"Hotel Unión Plaza";176993;"Booking.com";"True";"True";"False";"False";"True";"True";"True";"True";"False";"False";"4";8,3;"Muy bueno";"60";"8.774655";"-75.86615"
"433";"republicano 1910";"Republicano 1910";162198;"Booking.com";"True";"True";"True";"True";"True";"False";"True";"False";"True";"True";"3";8,1;"Muy bueno";"117";"4.29531";"-74.807747"
"435";"HOTEL PARK INN BY RADISSON BARRANCABERMEJA";"Park Inn By Radisson Barrancabermeja";242680;"Agoda";"True";"True";"False";"False";"True";"False";"True";"True";"True";"True";"4";8,8;"Excelente";"47";"7.061123";"-73.868446"
"436";"HYATT REGENCY CARTAGENA";"Hyatt Regency Cartagena";550338;"Prestigia";"True";"True";"True";"True";"True";"True";"True";"False";"True";"True";"4";9,2;"Excelente";"1135";"10.411293";"-75.551468"
"437";"SONESTA BUCARAMANGA";"Sonesta  Bucaramanga";219547;"ZenHotels.com";"True";"True";"True";"False";"True";"False";"True";"True";"True";"True";"5";8,6;"Excelente";"134";"7.072066";"-73.105263"
"438";"HAMPTON BY HILTON BOGOTA AIRPORT";"Hampton by Hilton Bogota Airport";225133;"Agoda";"False";"False";"False";"False";"False";"False";"False";"False";"False";"False";"5";8,5;"Excelente";"253";"4.66779";"-74.114113"
"439";"CONRAD CARTAGENA";"Conrad Cartagena";649943;"Prestigia";"True";"True";"True";"True";"True";"True";"True";"True";"True";"True";"5";8,6;"Excelente";"295";"10.545";"-75.490753"
"442";"MAGIC HILL BY ON VACATION";"On Vacation Magic Hill";364817;"lol.travel";"False";"False";"False";"False";"False";"False";"False";"False";"False";"False";"3";8,3;"Muy bueno";"Puntuación";"12.56092";"-81.716911"
"444";"IBIS CALI GRANADA";"ibis Cali Granada (Opening February 2018)";108004;"Booking.com";"False";"False";"False";"False";"True";"True";"True";"True";"False";"False";"3";8,3;"Muy bueno";"184";"3.457916";"-76.534592"
"451";"HILTON GARDEN BOGOTA AIRPORT";"Hilton Garden Inn Bogota Airport";244277;"Agoda";"False";"False";"False";"False";"False";"False";"False";"False";"False";"False";"4";8,9;"Excelente";"486";"4.635828";"-74.158234"
"452";"COSMOS PACIFICO HOTEL";"Hotel Cosmos Pacifico";251142;"Booking.com";"True";"True";"True";"True";"True";"True";"True";"True";"True";"True";"5";8,7;"Excelente";"239";"3.891153";"-77.078445"
"453";"HOTEL LA VIA CARTAGENA";"La Gran Via Hotel";252379;"lol.travel";"True";"True";"True";"False";"False";"True";"True";"True";"True";"False";"3";7,7;"Bueno";"1173";"10.39798";"-75.556831"
"454";"CORALES DE INDIAS";"Ghl Corales de Indias";363410;"lol.travel";"True";"True";"True";"True";"True";"False";"True";"True";"True";"True";"4";8;"Muy bueno";"2725";"10.443166";"-75.525307"
"457";"GHL BOGOTA OCCIDENTE";"Ghl  Bogota Occidente";183006;"Booking.com";"False";"False";"False";"False";"False";"False";"False";"False";"False";"False";"5";8,5;"Excelente";"38";"4.625875";"-74.100815"
"459";"CAQUETA REAL";"Caquetá Real - HSC";202534;"Booking.com";"True";"True";"True";"False";"True";"False";"True";"True";"True";"False";"3";7,6;"Bueno";"10";"1.618082";"-75.612274"
"460";"VENTURA FLORIDABLANCA";"Ventura";174606;"ZenHotels.com";"True";"True";"False";"False";"True";"False";"True";"True";"False";"False";"4";8,8;"Excelente";"40";"7.040222";"-73.074715"
"462";"SONESTA DE IBAGUE";"Sonesta  Ibague";222105;"Agoda";"False";"False";"False";"False";"False";"False";"False";"False";"False";"False";"4";8,7;"Excelente";"143";"4.440393";"-75.204475"
"466";"QUO HOTEL";"Hotel Quo Quality";339405;"Booking.com";"True";"True";"False";"True";"True";"True";"True";"True";"True";"True";"4";8,9;"Excelente";"237";"5.053359";"-75.488853"
"477";"HILTON GARDEN INN SANTA";"Hilton Garden Inn Santa Marta";279113;"Agoda";"False";"False";"False";"False";"False";"False";"False";"False";"False";"False";"4";8,8;"Excelente";"267";"11.239301";"-74.215813"
"488";"GRAND HYATT BOGOTA";"Grand Hyatt Bogota";976977;"lol.travel";"True";"True";"True";"True";"True";"True";"True";"True";"True";"True";"4";9,2;"Excelente";"301";"4.642993";"-74.099808"
"490";"HAMPTON BY HILTON CUCUTA";"Hampton Inn By Hilton Cucuta";211275;"Booking.com";"False";"False";"False";"False";"False";"False";"False";"False";"False";"False";"4";8,8;"Excelente";"100";"7.884652";"-72.494553"
"491";"AC HOTEL SANTA MARTA";"AC Hotel Santa Marta";228757;"Booking.com";"False";"False";"False";"False";"False";"False";"False";"False";"False";"False";"4";8,2;"Muy bueno";"93";"11.240225";"-74.215652"
"494";"HILTON BOGOTA CORFERIAS";"Hilton Bogota Corferias";640957;"Agoda";"False";"False";"False";"False";"False";"False";"False";"False";"False";"False";"5";8,6;"Excelente";"83";"4.628846";"-74.088615"
"496";"SAN LUIS PLACE BY DORADO";"San Luis Place By Dorado";314019;"Booking.com";"True";"True";"False";"False";"False";"True";"True";"False";"False";"False";"4";7,8;"Bueno";"72";"12.54955";"-81.704651"
"503";"SOY LOCAL HOUSETEL MEDELLIN";"Soy Local";132429;"Agoda";"False";"False";"False";"False";"False";"False";"False";"False";"False";"False";"4";8,4;"Muy bueno";"371";"6.208081";"-75.565254"
"505";"SOY LOCAL CARTAGENA";"Soy Local Centro Historico";240386;"Booking.com";"False";"False";"False";"False";"False";"False";"False";"False";"False";"False";"5";8,1;"Muy bueno";"20";"10.42431";"-75.54837"
"507";"SOUL";"Soul Lifestyle";219621;"Booking.com";"False";"False";"False";"False";"False";"False";"False";"False";"False";"False";"5";8,2;"Muy bueno";"45";"6.207051";"-75.565659"
"508";"EXPO SUITES";"Expo Suites";124925;"lol.travel";"True";"True";"False";"False";"False";"False";"False";"True";"False";"False";"3";8,2;"Muy bueno";"257";"4.619897";"-74.069412"
"509";"L'Etoile BOGOTA";"L'Etoile";123476;"ZenHotels.com";"True";"True";"False";"False";"True";"False";"False";"True";"True";"False";"3";8,1;"Muy bueno";"432";"4.630611";"-74.064598"
"512";"ALKO BOUTIQUE CALI";"Hostel Boutique Palo Alto";118700;"Booking.com";"False";"False";"False";"False";"False";"False";"False";"False";"False";"False";"5";9;"Excelente";"Puntuación";"6.244224";"-75.595612"
"513";"ALKO HOTEL INTEGRADO CALI";"Alko Hotel Integrado";227211;"Booking.com";"True";"True";"False";"False";"True";"False";"True";"True";"False";"False";"4";8,3;"Muy bueno";"41";"3.367928";"-76.533012"
"514";"MANCO MORA";"Manco Mora";65064;"Booking.com";"False";"False";"False";"False";"False";"False";"False";"False";"False";"False";"5";9;"Excelente";"Puntuación";"6.267127";"-75.56546"
"526";"HOTEL LA MANSION ACACIAS";"La Mansión De Acacías";98917;"Booking.com";"False";"True";"False";"False";"True";"True";"True";"False";"True";"False";"3";7,7;"Bueno";"23";"3.987559";"-73.76619"
"527";"BIOHOTEL ORGANIC SUITES BOGOTA ";"Biohotel Organic Suites";240599;"Booking.com";"True";"True";"False";"False";"True";"True";"True";"True";"True";"True";"4";9;"Excelente";"294";"4.700217";"-74.029488"
"534";"MI HOTEL SANDIEGO";"Mi Hotel Sandiego";222436;"Booking.com";"True";"True";"False";"False";"True";"False";"True";"True";"True";"True";"4";8,3;"Muy bueno";"717";"6.232524";"-75.609695"
"537";"WINDSOR BARRANQUILLA";"Windsor Barranquilla";186535;"Booking.com";"True";"True";"True";"True";"True";"False";"True";"True";"True";"True";"5";8;"Muy bueno";"455";"11.001821";"-74.819038"
"539";"MOCAWA TEBAIDA";"Mocawa Resort";509892;"Booking.com";"True";"True";"True";"True";"True";"False";"True";"True";"True";"True";"5";8,8;"Excelente";"324";"4.446735";"-75.812393"
"540";"VISUS HOTEL BOUTIQUE";"Visus Hotel Boutique & Spa";545366;"Agoda";"True";"True";"True";"True";"True";"True";"False";"True";"True";"False";"3";8,9;"Excelente";"67";"4.820319";"-75.810745"
"541";"HOWARD JOHNSON VERSALLES BARRANQUILLA";"Howard Johnson Versalles Barranquilla";258549;"Booking.com";"True";"True";"True";"False";"True";"False";"True";"True";"False";"True";"3";7,8;"Bueno";"492";"10.997286";"-74.80825"
"544";"MONSERRAT BOGOTA";"Monserrat";211052;"Booking.com";"True";"True";"False";"True";"False";"False";"False";"True";"False";"False";"3";7,8;"Bueno";"160";"4.60432";"-74.067642"
"548";"CASA LA RIVIERA BOGOTA";"Casa La Riviera";121088;"Booking.com";"True";"True";"False";"False";"True";"False";"False";"True";"False";"False";"2";7,8;"Bueno";"303";"4.687226";"-74.04583"
"549";"HOTEL CENTRO INTERNACIONAL BOGOTA";"Hotel Centro Internacional";121600;"lol.travel";"True";"True";"False";"False";"True";"False";"False";"True";"True";"False";"3";8,3;"Muy bueno";"645";"4.627275";"-74.067986"
"552";"HOTEL EL CAMPIN";"Hotel El Campin";116824;"Booking.com";"True";"False";"False";"False";"True";"False";"True";"True";"True";"False";"3";7,3;"Muy bueno";"336";"4.641297";"-74.074699"
"554";"HOTEL CONFORT 80 BOGOTA";"Hotel Confort 80 Castellana";205594;"Booking.com";"False";"True";"False";"False";"False";"False";"False";"True";"False";"False";"2";7,7;"Bueno";"161";"4.683607";"-74.058319"
"555";"104 ART SUITES";"104 Art Suites";201927;"Agoda";"True";"True";"False";"True";"True";"True";"True";"True";"True";"False";"4";8,7;"Excelente";"335";"4.691161";"-74.050346"
"556";"MATISSE BOGOTA";"Matisse";207939;"Booking.com";"True";"True";"False";"False";"False";"False";"False";"True";"True";"False";"3";8,3;"Muy bueno";"116";"4.65046";"-74.058075"
"562";"BALCONES DE MIRANDA BOUTIQUE";"Hotel Balcones de Miranda";112731;"Booking.com";"True";"True";"False";"False";"True";"True";"False";"False";"False";"False";"3";7,7;"Bueno";"25";"4.688789";"-74.040886"
"563";"BOUTIQUE CASONA DE USAQUEN ";"Casona De Usaquen";129999;"Booking.com";"True";"True";"False";"False";"False";"True";"False";"True";"False";"False";"3";8,4;"Muy bueno";"249";"4.694118";"-74.031235"
"564";"BOSQUE ALTO APARTASUITE";"Bosque Alto Apartasuite";187516;"Booking.com";"True";"True";"False";"False";"True";"True";"False";"False";"False";"True";"4";8,8;"Excelente";"559";"4.69371";"-74.03968"
"565";"HOTEL FERIAS PARK BOGOTA";"Hotel Ferias Park";94952;"Booking.com";"True";"True";"False";"False";"True";"True";"False";"True";"True";"False";"3";7,3;"Muy bueno";"21";"4.686255";"-74.085693"
"568";"ABITARE 56";"Abitare 56";127532;"lol.travel";"True";"True";"False";"False";"True";"False";"False";"True";"False";"False";"3";8,6;"Excelente";"572";"4.642218";"-74.062943"
"570";"HOTEL EXCELSIOR";"Hotel Excelsior";4858722;"ZenHotels.com";"True";"True";"False";"False";"True";"False";"True";"True";"True";"True";"3";8,3;"Muy bueno";"657";"4.672285";"-74.053185"
"571";"LLOYDS APARTASUITES";"Lloyds Apartasuites Parque 93";229205;"Booking.com";"True";"True";"False";"False";"True";"True";"False";"False";"False";"False";"4";8,6;"Excelente";"661";"4.677691";"-74.04586"
"577";"RETIRO 84 BOGOTA";"Hotel Retiro 84";204551;"Booking.com";"True";"True";"False";"False";"True";"False";"True";"True";"True";"False";"4";8,5;"Excelente";"147";"4.666336";"-74.050758"
"579";"HOTEL SANTA BARBARA REAL BOGOTA";"Santa Barbara Real";166624;"Booking.com";"True";"True";"False";"False";"True";"False";"False";"True";"True";"False";"4";7,2;"Excelente";"1399";"4.702039";"-74.029572"
"582";"HOTEL EMBASSY PARK BOGOTA";"Hotel Embassy Park";206275;"lol.travel";"True";"True";"False";"True";"True";"False";"False";"True";"True";"True";"4";8,1;"Muy bueno";"495";"4.634051";"-74.095154"
"586";"SUITES 108";"Suites 108";329110;"Booking.com";"True";"False";"False";"False";"True";"False";"False";"True";"True";"True";"4";8,4;"Muy bueno";"80";"4.692107";"-74.046127"
"587";"L'Etoile BOGOTA";"L'Etoile";124817;"ZenHotels.com";"True";"True";"False";"False";"True";"False";"False";"True";"True";"False";"3";8,1;"Muy bueno";"432";"4.630611";"-74.064598"
"589";"HOTEL EL VIRREY BOGOTA";"Hotel Bogotá Virrey";201578;"Booking.com";"True";"True";"False";"False";"False";"False";"True";"True";"True";"False";"3";7,5;"Bueno";"649";"4.672021";"-74.054314"
"591";"BESTMARK PLATINO BOGOTA";"BestMark Platino";119904;"ZenHotels.com";"True";"True";"False";"False";"False";"False";"False";"True";"True";"False";"3";8,1;"Muy bueno";"170";"4.63883";"-74.066711"
"594";"BH USAQUEN";"Hotel bh Usaquén";232696;"Booking.com";"False";"False";"False";"False";"False";"False";"False";"False";"True";"True";"4";8,5;"Excelente";"167";"4.696937";"-74.031555"
"595";"BOHEME ROYAL BOGOTA";"NH Bogotá Boheme Royal";351134;"Prestigia";"False";"False";"False";"False";"True";"False";"False";"True";"False";"True";"4";8,4;"Muy bueno";"942";"4.662384";"-74.048416"
"597";"TRYP  USAQUEN ";"Tryp Bogotá Usaquen";169813;"lol.travel";"True";"True";"False";"False";"True";"True";"True";"True";"True";"True";"5";8,1;"Muy bueno";"569";"4.697524";"-74.031799"
"598";"HOTEL DANN BOGOTA";"Hotel Dann Carlton Bogotá";214464;"lol.travel";"True";"True";"False";"False";"True";"False";"True";"True";"True";"True";"5";8,5;"Excelente";"1155";"4.688026";"-74.047142"
"599";"PARQUE 97 SUITES BOGOTA";"Parque 97 Suites";163133;"Booking.com";"True";"True";"False";"True";"True";"False";"False";"True";"True";"False";"4";8,6;"Excelente";"884";"4.684098";"-74.052605"
"601";"HOTEL BIOXURY";"Ghl Hotel Bioxury";330230;"Prestigia";"True";"True";"False";"True";"True";"True";"True";"True";"True";"False";"5";8,9;"Excelente";"722";"4.665765";"-74.050667"
"605";"HOTEL PORTON BOGOTA";"Hotel Porton Bogota";310491;"lol.travel";"False";"False";"False";"False";"True";"False";"False";"True";"True";"True";"4";8,8;"Excelente";"404";"4.664397";"-74.048103"
"606";"MORRISON  HOTEL  114";"Morrison Hotel 114";270020;"Booking.com";"False";"True";"False";"False";"True";"False";"True";"True";"True";"True";"4";9;"Excelente";"889";"4.696878";"-74.050179"
"607";"Black tower BOFOTA";"Black Tower Premium";212137;"Booking.com";"True";"True";"False";"False";"True";"True";"True";"True";"True";"False";"4";8,8;"Excelente";"904";"4.632308";"-74.093666"
"608";"GHL COMFORT LOS HEROES";"GHL Comfort Los Heroes";126756;"ZenHotels.com";"True";"True";"False";"True";"True";"True";"False";"True";"True";"False";"3";8,4;"Muy bueno";"345";"4.661481";"-74.060867"
"615";"HOTEL BAHIA CARTAGENA";"Bahia";270106;"Booking.com";"True";"False";"True";"False";"True";"True";"True";"True";"True";"False";"3";7,8;"Bueno";"327";"10.397481";"-75.559288"
"616";"EL VIAJERO CARTAGENA";"El Viajero Cartagena";174209;"ZenHotels.com";"True";"False";"True";"False";"False";"False";"True";"False";"False";"False";"4";8,3;"Muy bueno";"4548";"10.42689";"-75.5467"
"619";"HOTEL OR CARTAGENA";"Hotel Cartagena Dubai";349453;"lol.travel";"True";"True";"True";"True";"True";"False";"True";"True";"True";"True";"4";7;"Excelente";"138";"10.407163";"-75.553162"
"620";"CASA DEL CURATO CARTAGENA";"Casa Del Curato";457375;"Booking.com";"False";"True";"True";"False";"False";"False";"True";"False";"False";"False";"3";8,3;"Muy bueno";"359";"10.41373";"-75.533577"
"622";"CASA GLORIA CARTAGENA";"Casa Gloria";322688;"Booking.com";"True";"True";"True";"False";"False";"True";"True";"True";"True";"True";"4";8,7;"Excelente";"650";"10.426604";"-75.545509"
"624";"CASA ESTRELLA CORDOBA CARTAGENA";"Casa Cordoba Estrella";491808;"Booking.com";"True";"True";"True";"False";"False";"True";"False";"False";"False";"False";"4";8,7;"Excelente";"108";"10.42579";"-75.549454"
"626";"VELEROS CARTAGENA";"Veleros";99086;"lol.travel";"True";"True";"False";"False";"False";"False";"True";"False";"False";"False";"3";7,3;"Muy bueno";"172";"10.399117";"-75.558151"
"628";"NAUTILUS PLAZA CARTAGENA";"Nautilus Plaza";165071;"Booking.com";"True";"True";"False";"True";"False";"True";"True";"True";"False";"False";"3";7,4;"Muy bueno";"53";"10.428321";"-75.547318"
"629";"HOTEL CARTAGENA MILLENNIUM CARTAGENA";"Hotel Cartagena Millennium";260493;"lol.travel";"True";"True";"True";"False";"False";"False";"True";"True";"True";"False";"4";7,6;"Bueno";"389";"10.402966";"-75.555412"
"634";"MONTERREY CARTAGENA";"Monterrey";323978;"Booking.com";"True";"True";"True";"True";"True";"True";"True";"True";"True";"False";"3";8,4;"Muy bueno";"391";"10.421801";"-75.547562"
"636";"ARSENAL BOUTIQUE";"Boutique Casa Del Arsenal";211187;"lol.travel";"True";"True";"True";"False";"True";"False";"True";"True";"False";"True";"5";9;"Excelente";"648";"10.4187";"-75.546738"
"637";"CASA VICTORIA";"Casa Victoria";202697;"Booking.com";"True";"True";"False";"False";"True";"False";"True";"True";"True";"True";"4";8,4;"Muy bueno";"474";"6.200422";"-75.564919"
"640";"HOTEL CARTAGENA DUBAI";"Hotel Cartagena Dubai";422762;"lol.travel";"True";"True";"True";"True";"True";"False";"True";"True";"True";"True";"4";7;"Excelente";"138";"10.407163";"-75.553162"
"642";"ARMERIA REAL LUXURY";"Hotel Armeria Real Luxury";426124;"Prestigia";"True";"True";"True";"True";"True";"False";"True";"True";"True";"True";"5";8;"Muy bueno";"342";"10.418005";"-75.545464"
"645";"BALCONES DE BOCAGRANDE";"Balcones De Bocagrande";161063;"Booking.com";"True";"False";"False";"False";"False";"False";"True";"False";"False";"False";"3";7,8;"Bueno";"245";"10.406655";"-75.552414"
"648";"HOTEL CARTAGENA ROYAL INN";"Hotel Cartagena Royal Inn";206403;"lol.travel";"True";"True";"False";"False";"False";"False";"True";"False";"True";"False";"3";7,5;"Bueno";"634";"10.425963";"-75.546593"
"651";"EL MARQUES BOUTIQUE";"El Marques Boutique";915303;"Booking.com";"True";"True";"True";"True";"False";"True";"True";"True";"True";"False";"4";8,7;"Excelente";"286";"10.42355";"-75.552284"
"652";"CASA SAN PEDRO CLAVER";"Hotel Casa Claver Loft Boutique";728854;"Booking.com";"True";"True";"True";"True";"False";"True";"True";"False";"False";"False";"4";9,2;"Excelente";"432";"10.422386";"-75.551094"
"657";"CARTAGENA REAL";"Cartagena Real";146969;"ZenHotels.com";"True";"False";"True";"False";"True";"False";"True";"True";"True";"False";"4";5,6;"Excelente";"30";"10.394455";"-75.560577"
"659";"CASA CANABAL BOUTIQUE";"Casa Canabal Boutique";468405;"lol.travel";"True";"True";"True";"False";"False";"True";"True";"True";"True";"False";"4";8,7;"Excelente";"443";"10.423524";"-75.545616"
"661";"MINTAKA LOUNGE";"Mintaka Lounge";176966;"Booking.com";"True";"True";"False";"False";"False";"False";"True";"False";"False";"False";"3";7,8;"Bueno";"87";"10.399242";"-75.558777"
"662";"OCEANO CARTAGENA";"Océano";106369;"Booking.com";"True";"False";"True";"False";"True";"False";"True";"True";"True";"False";"3";6,8;"Muy bueno";"78";"10.40214";"-75.521484"
"666";"CASA DON SANCHO BY MUSTIQUE";"Casa Don Sancho By Mustique";683557;"Booking.com";"True";"True";"True";"False";"False";"True";"True";"True";"False";"False";"4";9,3;"Excelente";"156";"10.42626";"-75.551376"
"670";"HOTEL CASA LOS PUNTALES";"Hotel Casa los Puntales";274371;"lol.travel";"True";"True";"False";"False";"False";"False";"True";"False";"False";"False";"3";7,2;"Muy bueno";"172";"10.42664";"-75.54731"
"671";"ATLANTIC LUX";"Atlantic Lux";216747;"lol.travel";"True";"True";"True";"True";"True";"True";"True";"True";"True";"True";"4";7,8;"Bueno";"759";"10.403674";"-75.554367"
"672";"BALCONES DE ALHELI";"Balcones de Alhelí B&B";338546;"Booking.com";"True";"True";"False";"False";"False";"True";"True";"False";"False";"False";"4";7,8;"Bueno";"383";"10.41373";"-75.533577"
"673";"HOTEL SAN FELIPE CARTAGENA";"Hotel San Felipe";169770;"lol.travel";"False";"False";"False";"False";"False";"False";"True";"True";"True";"False";"1";7,5;"Bueno";"1151";"10.419994";"-75.545868"
"677";"MALOKA HOSTEL CARTAGENA";"Maloka Hostel Cartagena";187825;"Booking.com";"False";"False";"False";"False";"False";"False";"False";"False";"False";"False";"4";8,4;"Muy bueno";"21";"10.426046";"-75.546288"
"678";"La Passion hotel boutique Cartagena";"La Passion Hotel Boutique";509311;"ZenHotels.com";"True";"True";"True";"False";"False";"False";"True";"True";"True";"True";"4";8,5;"Excelente";"294";"10.425053";"-75.550583"
"680";"Sophia Cartagena";"Sophia";701682;"Booking.com";"True";"True";"True";"False";"False";"True";"True";"False";"True";"False";"5";9,1;"Excelente";"218";"10.422403";"-75.551437"
"681";"HOTEL LA CASA DEL TURISTA";"Hotel La Casa del Turista";120541;"Booking.com";"True";"True";"False";"False";"True";"False";"False";"False";"False";"False";"3";7,4;"Muy bueno";"37";"10.398914";"-75.558067"
"682";"AMBEIMA IBAGUE";"Ambeima";90449;"Booking.com";"True";"True";"False";"False";"True";"False";"True";"True";"True";"True";"5";9;"Excelente";"Puntuación";"4.44983";"-75.248352"
"688";"ANTONIO NARIÑO VILLA ";"Antonio Nariño";226014;"Booking.com";"True";"True";"False";"False";"True";"True";"False";"False";"False";"False";"3";8,3;"Muy bueno";"304";"5.631828";"-73.525078"
"690";"LA GRAN ESQUINA PUERTO BOYACA ";"La Gran Esquina";120541;"Booking.com";"True";"True";"False";"False";"True";"False";"True";"True";"False";"False";"5";9;"Excelente";"Puntuación";"5.976522";"-74.591408"
"696";"CAMINO DE LA SAL";"Camino de la Sal";178776;"Booking.com";"True";"True";"False";"False";"True";"False";"False";"True";"False";"False";"3";9,2;"Excelente";"185";"5.025157";"-74.006035"
"701";"SUMAPAZ MELGAR";"Sumapaz";208608;"ZenHotels.com";"False";"False";"False";"False";"False";"False";"False";"False";"False";"False";"3";7,7;"Bueno";"12";"4.201848";"-74.639015"
"703";"CASA PABLO NEIVA";"Casa Pablo";96207;"Booking.com";"True";"True";"False";"False";"True";"True";"True";"True";"False";"False";"2";7;"Bueno";"34";"2.926563";"-75.281441"
"704";"METROPOLITANO NEIVA";"Metropolitano";105473;"Booking.com";"True";"True";"False";"False";"True";"False";"True";"True";"False";"False";"4";8,6;"Excelente";"259";"2.926389";"-75.288177"
"708";"HOTEL F25";"Hotel F25";180075;"Booking.com";"False";"False";"False";"False";"False";"False";"False";"False";"False";"False";"3";8,8;"Excelente";"48";"4.435958";"-75.213211"
